{
  "stations": [
      {
      "id": "KABR",
      "name": "Aberdeen",
      "state": "SD",
      "latitude": 45.4558,
      "longitude": -98.4131,
      "elevation": 1302,
      "towerheight": 66
    },
    {
      "id": "KENX",
      "name": "Albany",
      "state": "NY",
      "latitude": 42.5864,
      "longitude": -74.0639,
      "elevation": 1826,
      "towerheight": 66
    },
    {
      "id": "KABX",
      "name": "Albuquerque",
      "state": "NM",
      "latitude": 35.1497,
      "longitude": -106.8239,
      "elevation": 5870,
      "towerheight": 66
    },
    {
      "id": "KFDR",
      "name": "Altus AFB",
      "state": "OK",
      "latitude": 34.3622,
      "longitude": -98.9764,
      "elevation": 1267,
      "towerheight": 33
    },
    {
      "id": "KAMA",
      "name": "Amarillo",
      "state": "TX",
      "latitude": 35.2333,
      "longitude": -101.7092,
      "elevation": 3587,
      "towerheight": 66
    },
    {
      "id": "PAHG",
      "name": "Anchorage",
      "state": "AK",
      "latitude": 60.7258,
      "longitude": -151.3514,
      "elevation": 242,
      "towerheight": 98
    },
    {
      "id": "PGUA",
      "name": "Anderson AFB",
      "state": "GU",
      "latitude": 13.4525,
      "longitude": 144.8114,
      "elevation": 264,
      "towerheight": 98
    },
    {
      "id": "KFFC",
      "name": "Atlanta",
      "state": "GA",
      "latitude": 33.3636,
      "longitude": -84.5658,
      "elevation": 858,
      "towerheight": 98
    },
    {
      "id": "KEWX",
      "name": "Austin/San Antonio",
      "state": "TX",
      "latitude": 29.7039,
      "longitude": -98.0283,
      "elevation": 633,
      "towerheight": 66
    },
    {
      "id": "KBBX",
      "name": "Beale AFB",
      "state": "CA",
      "latitude": 39.4961,
      "longitude": -121.6317,
      "elevation": 167,
      "towerheight": 33
    },
    {
      "id": "PABC",
      "name": "Bethel",
      "state": "AK",
      "latitude": 60.7919,
      "longitude": -161.8764,
      "elevation": 162,
      "towerheight": 16
    },
    {
      "id": "KBLX",
      "name": "Billings",
      "state": "MT",
      "latitude": 45.8539,
      "longitude": -108.6067,
      "elevation": 3598,
      "towerheight": 33
    },
    {
      "id": "KBGM",
      "name": "Binghamton",
      "state": "NY",
      "latitude": 42.1997,
      "longitude": -75.9847,
      "elevation": 1606,
      "towerheight": 66
    },
    {
      "id": "KBMX",
      "name": "Birmingham",
      "state": "AL",
      "latitude": 33.1722,
      "longitude": -86.7697,
      "elevation": 645,
      "towerheight": 98
    },
    {
      "id": "KBIS",
      "name": "Bismarck",
      "state": "ND",
      "latitude": 46.7708,
      "longitude": -100.7606,
      "elevation": 1658,
      "towerheight": 66
    },
    {
      "id": "KCBX",
      "name": "Boise",
      "state": "ID",
      "latitude": 43.4906,
      "longitude": -116.2356,
      "elevation": 3061,
      "towerheight": 66
    },
    {
      "id": "KBOX",
      "name": "Boston",
      "state": "MA",
      "latitude": 41.9558,
      "longitude": -71.1369,
      "elevation": 118,
      "towerheight": 98
    },
    {
      "id": "KBRO",
      "name": "Brownsville",
      "state": "TX",
      "latitude": 25.9161,
      "longitude": -97.4189,
      "elevation": 23,
      "towerheight": 33
    },
    {
      "id": "KBUF",
      "name": "Buffalo",
      "state": "NY",
      "latitude": 42.9489,
      "longitude": -78.7367,
      "elevation": 693,
      "towerheight": 66
    },
    {
      "id": "KCXX",
      "name": "Burlington",
      "state": "VT",
      "latitude": 44.5111,
      "longitude": -73.1669,
      "elevation": 317,
      "towerheight": 98
    },
    {
      "id": "RKSG",
      "name": "Camp Humphreys",
      "state": "Korea",
      "latitude": 36.9558,
      "longitude": 127.0211,
      "elevation": 52,
      "towerheight": 66
    },
    {
      "id": "KFDX",
      "name": "Cannon AFB",
      "state": "NM",
      "latitude": 34.6353,
      "longitude": -103.6294,
      "elevation": 4650,
      "towerheight": 33
    },
    {
      "id": "KICX",
      "name": "Cedar City",
      "state": "UT",
      "latitude": 37.5908,
      "longitude": -112.8622,
      "elevation": 10600,
      "towerheight": 98
    },
    {
      "id": "KCLX",
      "name": "Charleston",
      "state": "SC",
      "latitude": 32.6556,
      "longitude": -81.0422,
      "elevation": 97,
      "towerheight": 98
    },
    {
      "id": "KRLX",
      "name": "Charleston",
      "state": "WV",
      "latitude": 38.3111,
      "longitude": -81.7231,
      "elevation": 1080,
      "towerheight": 98
    },
    {
      "id": "KCYS",
      "name": "Cheyenne",
      "state": "WY",
      "latitude": 41.1519,
      "longitude": -104.8061,
      "elevation": 6128,
      "towerheight": 33
    },
    {
      "id": "KLOT",
      "name": "Chicago",
      "state": "IL",
      "latitude": 41.6047,
      "longitude": -88.0847,
      "elevation": 663,
      "towerheight": 66
    },
    {
      "id": "KILN",
      "name": "Cincinnati",
      "state": "OH",
      "latitude": 39.4203,
      "longitude": -83.8217,
      "elevation": 1056,
      "towerheight": 98
    },
    {
      "id": "KCLE",
      "name": "Cleveland",
      "state": "OH",
      "latitude": 41.4131,
      "longitude": -81.8603,
      "elevation": 763,
      "towerheight": 66
    },
    {
      "id": "KCAE",
      "name": "Columbia",
      "state": "SC",
      "latitude": 33.9486,
      "longitude": -81.1183,
      "elevation": 231,
      "towerheight": 98
    },
    {
      "id": "KGWX",
      "name": "Columbus AFB",
      "state": "MS",
      "latitude": 33.8967,
      "longitude": -88.3289,
      "elevation": 476,
      "towerheight": 66
    },
    {
      "id": "KCRP",
      "name": "Corpus Christi",
      "state": "TX",
      "latitude": 27.7842,
      "longitude": -97.5111,
      "elevation": 45,
      "towerheight": 66
    },
    {
      "id": "KFWS",
      "name": "Dallas/Ft. Worth",
      "state": "TX",
      "latitude": 32.5731,
      "longitude": -97.3031,
      "elevation": 683,
      "towerheight": 66
    },
    {
      "id": "KDVN",
      "name": "Davenport",
      "state": "IA",
      "latitude": 41.6117,
      "longitude": -90.5808,
      "elevation": 754,
      "towerheight": 66
    },
    {
      "id": "KFTG",
      "name": "Denver",
      "state": "CO",
      "latitude": 39.7867,
      "longitude": -104.5458,
      "elevation": 5497,
      "towerheight": 98
    },
    {
      "id": "KDMX",
      "name": "Des Moines",
      "state": "IA",
      "latitude": 41.7311,
      "longitude": -93.7228,
      "elevation": 981,
      "towerheight": 98
    },
    {
      "id": "KDTX",
      "name": "Detroit",
      "state": "MI",
      "latitude": 42.6997,
      "longitude": -83.4717,
      "elevation": 1072,
      "towerheight": 98
    },
    {
      "id": "KDDC",
      "name": "Dodge City",
      "state": "KS",
      "latitude": 37.7608,
      "longitude": -99.9692,
      "elevation": 2590,
      "towerheight": 66
    },
    {
      "id": "KDOX",
      "name": "Dover AFB",
      "state": "DE",
      "latitude": 38.8256,
      "longitude": -75.4425,
      "elevation": 50,
      "towerheight": 98
    },
    {
      "id": "KDLH",
      "name": "Duluth",
      "state": "MN",
      "latitude": 46.8369,
      "longitude": -92.2097,
      "elevation": 1428,
      "towerheight": 98
    },
    {
      "id": "KDYX",
      "name": "Dyess AFB",
      "state": "TX",
      "latitude": 32.5383,
      "longitude": -99.2544,
      "elevation": 1517,
      "towerheight": 33
    },
    {
      "id": "KEYX",
      "name": "Edwards AFB",
      "state": "CA",
      "latitude": 35.0978,
      "longitude": -117.5608,
      "elevation": 2757,
      "towerheight": 66
    },
    {
      "id": "KEVX",
      "name": "Eglin AFB",
      "state": "FL",
      "latitude": 30.5644,
      "longitude": -85.9214,
      "elevation": 140,
      "towerheight": 66
    },
    {
      "id": "KEPZ",
      "name": "El Paso",
      "state": "TX",
      "latitude": 31.8731,
      "longitude": -106.6981,
      "elevation": 4104,
      "towerheight": 98
    },
    {
      "id": "KLRX",
      "name": "Elko",
      "state": "NV",
      "latitude": 40.7397,
      "longitude": -116.8028,
      "elevation": 6744,
      "towerheight": 98
    },
    {
      "id": "KBHX",
      "name": "Eureka",
      "state": "CA",
      "latitude": 40.4983,
      "longitude": -124.2919,
      "elevation": 2402,
      "towerheight": 98
    },
    {
      "id": "PAPD",
      "name": "Fairbanks",
      "state": "AK",
      "latitude": 65.0350,
      "longitude": -147.5017,
      "elevation": 2593,
      "towerheight": 98
    },
    {
      "id": "KFSX",
      "name": "Flagstaff",
      "state": "AZ",
      "latitude": 34.5744,
      "longitude": -111.1978,
      "elevation": 7417,
      "towerheight": 66
    },
    {
      "id": "KHPX",
      "name": "Fort Campbell",
      "state": "KY",
      "latitude": 36.7367,
      "longitude": -87.2850,
      "elevation": 576,
      "towerheight": 33
    },
    {
      "id": "KGRK",
      "name": "Fort Hood",
      "state": "TX",
      "latitude": 30.7219,
      "longitude": -97.3831,
      "elevation": 538,
      "towerheight": 33
    },
    {
      "id": "KPOE",
      "name": "Fort Polk",
      "state": "LA",
      "latitude": 31.1556,
      "longitude": -92.9758,
      "elevation": 408,
      "towerheight": 33
    },
    {
      "id": "KEOX",
      "name": "Fort Rucker",
      "state": "AL",
      "latitude": 31.4606,
      "longitude": -85.4594,
      "elevation": 434,
      "towerheight": 33
    },
    {
      "id": "KSRX",
      "name": "Fort Smith",
      "state": "AR",
      "latitude": 35.2906,
      "longitude": -94.3617,
      "elevation": 640,
      "towerheight": 66
    },
    {
      "id": "KIWX",
      "name": "Fort Wayne",
      "state": "IN",
      "latitude": 41.3589,
      "longitude": -85.7000,
      "elevation": 960,
      "towerheight": 82
    },
    {
      "id": "KAPX",
      "name": "Gaylord",
      "state": "MI",
      "latitude": 44.9072,
      "longitude": -84.7197,
      "elevation": 1464,
      "towerheight": 66
    },
    {
      "id": "KGGW",
      "name": "Glasgow",
      "state": "MT",
      "latitude": 48.2064,
      "longitude": -106.6250,
      "elevation": 2276,
      "towerheight": 66
    },
    {
      "id": "KGLD",
      "name": "Goodland",
      "state": "KS",
      "latitude": 39.3669,
      "longitude": -101.7003,
      "elevation": 3651,
      "towerheight": 33
    },
    {
      "id": "KMVX",
      "name": "Grand Forks",
      "state": "ND",
      "latitude": 47.5278,
      "longitude": -97.3256,
      "elevation": 986,
      "towerheight": 66
    },
    {
      "id": "KGJX",
      "name": "Grand Junction",
      "state": "Co",
      "latitude": 39.0622,
      "longitude": -108.2139,
      "elevation": 9991,
      "towerheight": 33
    },
    {
      "id": "KGRR",
      "name": "Grand Rapids",
      "state": "MI",
      "latitude": 42.8939,
      "longitude": -85.5447,
      "elevation": 778,
      "towerheight": 66
    },
    {
      "id": "KTFX",
      "name": "Great Falls",
      "state": "MT",
      "latitude": 47.4597,
      "longitude": -111.3853,
      "elevation": 3714,
      "towerheight": 33
    },
    {
      "id": "KGRB",
      "name": "Green Bay",
      "state": "WI",
      "latitude": 44.4983,
      "longitude": -88.1114,
      "elevation": 682,
      "towerheight": 98
    },
    {
      "id": "KGSP",
      "name": "Greer",
      "state": "SC",
      "latitude": 34.8833,
      "longitude": -82.2200,
      "elevation": 940,
      "towerheight": 98
    },
    {
      "id": "KRMX",
      "name": "Griffiss AFB",
      "state": "NY",
      "latitude": 43.4678,
      "longitude": -75.4578,
      "elevation": 1516,
      "towerheight": 98
    },
    {
      "id": "KUEX",
      "name": "Hastings",
      "state": "NE",
      "latitude": 40.3208,
      "longitude": -98.4425,
      "elevation": 1976,
      "towerheight": 66
    },
    {
      "id": "KHDX",
      "name": "Holloman AFB",
      "state": "NM",
      "latitude": 33.0764,
      "longitude": -106.1228,
      "elevation": 4222,
      "towerheight": 33
    },
    {
      "id": "KCBW",
      "name": "Houlton",
      "state": "ME",
      "latitude": 46.0392,
      "longitude": -67.8064,
      "elevation": 746,
      "towerheight": 98
    },
    {
      "id": "KHGX",
      "name": "Houston/Galveston",
      "state": "TX",
      "latitude": 29.4719,
      "longitude": -95.0792,
      "elevation": 18,
      "towerheight": 66
    },
    {
      "id": "KHTX",
      "name": "Huntsville",
      "state": "AL",
      "latitude": 34.9306,
      "longitude": -86.0833,
      "elevation": 1760,
      "towerheight": 49
    },
    {
      "id": "KIND",
      "name": "Indianapolis",
      "state": "IN",
      "latitude": 39.7075,
      "longitude": -86.2703,
      "elevation": 790,
      "towerheight": 66
    },
    {
      "id": "KJKL",
      "name": "Jackson",
      "state": "KY",
      "latitude": 37.5908,
      "longitude": -83.3131,
      "elevation": 1364,
      "towerheight": 82
    },
    {
      "id": "KJAN",
      "name": "Jackson",
      "state": "MS",
      "latitude": 32.3178,
      "longitude": -90.0800,
      "elevation": 297,
      "towerheight": 66
    },
    {
      "id": "KJAX",
      "name": "Jacksonville",
      "state": "FL",
      "latitude": 30.4847,
      "longitude": -81.7019,
      "elevation": 33,
      "towerheight": 66
    },
    {
      "id": "RODN",
      "name": "Kadena",
      "state": "Okinawa",
      "latitude": 26.3019,
      "longitude": 127.9097,
      "elevation": 218,
      "towerheight": 98
    },
    {
      "id": "PHKN",
      "name": "Kamuela",
      "state": "HI",
      "latitude": 20.1256,
      "longitude": -155.7778,
      "elevation": 3812,
      "towerheight": 98
    },
    {
      "id": "KEAX",
      "name": "Kansas City",
      "state": "MO",
      "latitude": 38.8103,
      "longitude": -94.2644,
      "elevation": 995,
      "towerheight": 66
    },
    {
      "id": "KBYX",
      "name": "Key West",
      "state": "FL",
      "latitude": 24.5975,
      "longitude": -81.7031,
      "elevation": 8,
      "towerheight": 66
    },
    {
      "id": "PAKC",
      "name": "King Salmon",
      "state": "AK",
      "latitude": 58.6794,
      "longitude": -156.6294,
      "elevation": 63,
      "towerheight": 66
    },
    {
      "id": "KMRX",
      "name": "Knoxville/Tri-Cities",
      "state": "TN",
      "latitude": 36.1686,
      "longitude": -83.4017,
      "elevation": 1337,
      "towerheight": 66
    },
    {
      "id": "RKJK",
      "name": "Kunsan AB",
      "state": "Korea",
      "latitude": 35.9242,
      "longitude": 126.6222,
      "elevation": 78,
      "towerheight": 98
    },
    {
      "id": "KARX",
      "name": "La Crosse",
      "state": "WI",
      "latitude": 43.8228,
      "longitude": -91.1911,
      "elevation": 1276,
      "towerheight": 66
    },
    {
      "id": "LPLA",
      "name": "Lajes AB",
      "state": "Azores",
      "latitude": 38.7303,
      "longitude": -27.3217,
      "elevation": 3334,
      "towerheight": 66
    },
    {
      "id": "KLCH",
      "name": "Lake Charles",
      "state": "LA",
      "latitude": 30.1253,
      "longitude": -93.2158,
      "elevation": 13,
      "towerheight": 66
    },
    {
      "id": "KESX",
      "name": "Las Vegas",
      "state": "NV",
      "latitude": 35.7011,
      "longitude": -114.8914,
      "elevation": 4867,
      "towerheight": 66
    },
    {
      "id": "KDFX",
      "name": "Laughlin AFB",
      "state": "TX",
      "latitude": 29.2728,
      "longitude": -100.2806,
      "elevation": 1131,
      "towerheight": 33
    },
    {
      "id": "KILX",
      "name": "Lincoln",
      "state": "IL",
      "latitude": 40.1506,
      "longitude": -89.3369,
      "elevation": 582,
      "towerheight": 98
    },
    {
      "id": "KLZK",
      "name": "Little Rock",
      "state": "AR",
      "latitude": 34.8364,
      "longitude": -92.2622,
      "elevation": 568,
      "towerheight": 66
    },
    {
      "id": "KVTX",
      "name": "Los Angeles",
      "state": "CA",
      "latitude": 34.4117,
      "longitude": -119.1794,
      "elevation": 2726,
      "towerheight": 66
    },
    {
      "id": "KLVX",
      "name": "Louisville",
      "state": "KY",
      "latitude": 37.9753,
      "longitude": -85.9439,
      "elevation": 719,
      "towerheight": 98
    },
    {
      "id": "KLBB",
      "name": "Lubbock",
      "state": "TX",
      "latitude": 33.6542,
      "longitude": -101.8142,
      "elevation": 3259,
      "towerheight": 66
    },
    {
      "id": "KMQT",
      "name": "Marquette",
      "state": "MI",
      "latitude": 46.5311,
      "longitude": -87.5483,
      "elevation": 1411,
      "towerheight": 98
    },
    {
      "id": "KMXX",
      "name": "Maxwell AFB",
      "state": "AL",
      "latitude": 32.5367,
      "longitude": -85.7903,
      "elevation": 400,
      "towerheight": 98
    },
    {
      "id": "KMAX",
      "name": "Medford",
      "state": "OR",
      "latitude": 42.0811,
      "longitude": -122.7172,
      "elevation": 7513,
      "towerheight": 33
    },
    {
      "id": "KMLB",
      "name": "Melbourne",
      "state": "FL",
      "latitude": 28.1133,
      "longitude": -80.6542,
      "elevation": 35,
      "towerheight": 66
    },
    {
      "id": "KNQA",
      "name": "Memphis",
      "state": "TN",
      "latitude": 35.3447,
      "longitude": -89.8733,
      "elevation": 282,
      "towerheight": 66
    },
    {
      "id": "KAMX",
      "name": "Miami",
      "state": "FL",
      "latitude": 25.6111,
      "longitude": -80.4128,
      "elevation": 14,
      "towerheight": 66
    },
    {
      "id": "PAIH",
      "name": "Middleton Island",
      "state": "AK",
      "latitude": 59.4614,
      "longitude": -146.3031,
      "elevation": 67,
      "towerheight": 33
    },
    {
      "id": "KMAF",
      "name": "Midland/Odessa",
      "state": "TX",
      "latitude": 31.9433,
      "longitude": -102.1892,
      "elevation": 2868,
      "towerheight": 33
    },
    {
      "id": "KMKX",
      "name": "Milwaukee",
      "state": "WI",
      "latitude": 42.9678,
      "longitude": -88.5506,
      "elevation": 958,
      "towerheight": 33
    },
    {
      "id": "KMPX",
      "name": "Minneapolis/St. Paul",
      "state": "MN",
      "latitude": 44.8489,
      "longitude": -93.5656,
      "elevation": 946,
      "towerheight": 98
    },
    {
      "id": "KMBX",
      "name": "Minot AFB",
      "state": "ND",
      "latitude": 48.3925,
      "longitude": -100.8650,
      "elevation": 1493,
      "towerheight": 66
    },
    {
      "id": "KMSX",
      "name": "Missoula",
      "state": "MT",
      "latitude": 47.0411,
      "longitude": -113.9861,
      "elevation": 7855,
      "towerheight": 33
    },
    {
      "id": "KMOB",
      "name": "Mobile",
      "state": "AL",
      "latitude": 30.6794,
      "longitude": -88.2397,
      "elevation": 208,
      "towerheight": 66
    },
    {
      "id": "PHMO",
      "name": "Molokai",
      "state": "HI",
      "latitude": 21.1328,
      "longitude": -157.1800,
      "elevation": 1363,
      "towerheight": 66
    },
    {
      "id": "KVAX",
      "name": "Moody AFB",
      "state": "GA",
      "latitude": 30.3903,
      "longitude": -83.0017,
      "elevation": 173,
      "towerheight": 98
    },
    {
      "id": "KMHX",
      "name": "Morehead City",
      "state": "NC",
      "latitude": 34.7761,
      "longitude": -76.8761,
      "elevation": 31,
      "towerheight": 98
    },
    {
      "id": "KOHX",
      "name": "Nashville",
      "state": "TN",
      "latitude": 36.2472,
      "longitude": -86.5625,
      "elevation": 579,
      "towerheight": 66
    },
    {
      "id": "KLIX",
      "name": "New Orleans",
      "state": "LA",
      "latitude": 30.3367,
      "longitude": -89.8256,
      "elevation": 24,
      "towerheight": 98
    },
    {
      "id": "KOKX",
      "name": "New York City",
      "state": "NY",
      "latitude": 40.8656,
      "longitude": -72.8639,
      "elevation": 85,
      "towerheight": 98
    },
    {
      "id": "PAEC",
      "name": "Nome",
      "state": "AK",
      "latitude": 64.5114,
      "longitude": -165.2950,
      "elevation": 54,
      "towerheight": 16
    },
    {
      "id": "KAKQ",
      "name": "Norfolk/Richmond",
      "state": "VA",
      "latitude": 36.9839,
      "longitude": -77.0072,
      "elevation": 112,
      "towerheight": 66
    },
    {
      "id": "KLNX",
      "name": "North Platte",
      "state": "NE",
      "latitude": 41.9578,
      "longitude": -100.5764,
      "elevation": 2970,
      "towerheight": 66
    },
    {
      "id": "KTLX",
      "name": "Oklahoma City",
      "state": "OK",
      "latitude": 35.3331,
      "longitude": -97.2778,
      "elevation": 1213,
      "towerheight": 49
    },
    {
      "id": "KOAX",
      "name": "Omaha",
      "state": "NE",
      "latitude": 41.3203,
      "longitude": -96.3667,
      "elevation": 1148,
      "towerheight": 98
    },
    {
      "id": "KPAH",
      "name": "Paducah",
      "state": "KY",
      "latitude": 37.0683,
      "longitude": -88.7719,
      "elevation": 392,
      "towerheight": 98
    },
    {
      "id": "KPDT",
      "name": "Pendleton",
      "state": "OR",
      "latitude": 45.6906,
      "longitude": -118.8528,
      "elevation": 1515,
      "towerheight": 33
    },
    {
      "id": "KDIX",
      "name": "Philadelphia",
      "state": "PA",
      "latitude": 39.9469,
      "longitude": -74.4108,
      "elevation": 149,
      "towerheight": 66
    },
    {
      "id": "KIWA",
      "name": "Phoenix",
      "state": "AZ",
      "latitude": 33.2892,
      "longitude": -111.6699,
      "elevation": 1353,
      "towerheight": 33
    },
    {
      "id": "KPBZ",
      "name": "Pittsburgh",
      "state": "PA",
      "latitude": 40.5317,
      "longitude": -80.2181,
      "elevation": 1185,
      "towerheight": 66
    },
    {
      "id": "KSFX",
      "name": "Pocatello/Idaho Falls",
      "state": "ID",
      "latitude": 43.1058,
      "longitude": -112.6861,
      "elevation": 4474,
      "towerheight": 33
    },
    {
      "id": "KGYX",
      "name": "Portland",
      "state": "ME",
      "latitude": 43.8914,
      "longitude": -70.2564,
      "elevation": 409,
      "towerheight": 33
    },
    {
      "id": "KRTX",
      "name": "Portland",
      "state": "OR",
      "latitude": 45.7147,
      "longitude": -122.9653,
      "elevation": 1572,
      "towerheight": 98
    },
    {
      "id": "KPUX",
      "name": "Pueblo",
      "state": "CO",
      "latitude": 38.4594,
      "longitude": -104.1814,
      "elevation": 5249,
      "towerheight": 33
    },
    {
      "id": "KRAX",
      "name": "Raleigh/Durham",
      "state": "NC",
      "latitude": 35.6656,
      "longitude": -78.4897,
      "elevation": 348,
      "towerheight": 98
    },
    {
      "id": "KUDX",
      "name": "Rapid City",
      "state": "SD",
      "latitude": 44.1250,
      "longitude": -102.8297,
      "elevation": 3016,
      "towerheight": 98
    },
    {
      "id": "KRGX",
      "name": "Reno",
      "state": "NV",
      "latitude": 39.7542,
      "longitude": -119.4622,
      "elevation": 8299,
      "towerheight": 66
    },
    {
      "id": "KRIW",
      "name": "Riverton",
      "state": "WY",
      "latitude": 43.0661,
      "longitude": -108.4772,
      "elevation": 5568,
      "towerheight": 33
    },
    {
      "id": "KFCX",
      "name": "Roanoke",
      "state": "VA",
      "latitude": 37.0244,
      "longitude": -80.2739,
      "elevation": 2868,
      "towerheight": 66
    },
    {
      "id": "KJGX",
      "name": "Robins AFB",
      "state": "GA",
      "latitude": 32.6753,
      "longitude": -83.3511,
      "elevation": 521,
      "towerheight": 66
    },
    {
      "id": "KDAX",
      "name": "Sacramento",
      "state": "CA",
      "latitude": 38.5011,
      "longitude": -121.6778,
      "elevation": 30,
      "towerheight": 98
    },
    {
      "id": "KLSX",
      "name": "Saint Louis",
      "state": "MO",
      "latitude": 38.6989,
      "longitude": -90.6828,
      "elevation": 608,
      "towerheight": 98
    },
    {
      "id": "KMTX",
      "name": "Salt Lake City",
      "state": "UT",
      "latitude": 41.2628,
      "longitude": -112.4478,
      "elevation": 6460,
      "towerheight": 98
    },
    {
      "id": "KSJT",
      "name": "San Angelo",
      "state": "TX",
      "latitude": 31.3714,
      "longitude": -100.4925,
      "elevation": 1890,
      "towerheight": 98
    },
    {
      "id": "KNKX",
      "name": "San Diego",
      "state": "CA",
      "latitude": 32.9189,
      "longitude": -117.0419,
      "elevation": 955,
      "towerheight": 66
    },
    {
      "id": "KMUX",
      "name": "San Francisco",
      "state": "CA",
      "latitude": 37.1553,
      "longitude": -121.8983,
      "elevation": 3469,
      "towerheight": 66
    },
    {
      "id": "KHNX",
      "name": "San Joaquin Valley",
      "state": "CA",
      "latitude": 36.3142,
      "longitude": -119.6322,
      "elevation": 243,
      "towerheight": 66
    },
    {
      "id": "TJUA",
      "name": "San Juan",
      "state": "PR",
      "latitude": 18.1156,
      "longitude": -66.0781,
      "elevation": 2794,
      "towerheight": 98
    },
    {
      "id": "KSOX",
      "name": "Santa Ana Mountains",
      "state": "CA",
      "latitude": 33.8178,
      "longitude": -117.6358,
      "elevation": 3027,
      "towerheight": 49
    },
    {
      "id": "KATX",
      "name": "Seattle/Tacoma",
      "state": "WA",
      "latitude": 48.1944,
      "longitude": -122.4958,
      "elevation": 494,
      "towerheight": 98
    },
    {
      "id": "KSHV",
      "name": "Shreveport",
      "state": "LA",
      "latitude": 32.4508,
      "longitude": -93.8414,
      "elevation": 273,
      "towerheight": 98
    },
    {
      "id": "KFSD",
      "name": "Sioux Falls",
      "state": "SD",
      "latitude": 43.5878,
      "longitude": -96.7294,
      "elevation": 1430,
      "towerheight": 33
    },
    {
      "id": "PACG",
      "name": "Sitka",
      "state": "AK",
      "latitude": 56.8528,
      "longitude": -135.5292,
      "elevation": 209,
      "towerheight": 33
    },
    {
      "id": "PHKI",
      "name": "South Kauai",
      "state": "HI",
      "latitude": 21.8942,
      "longitude": -159.5522,
      "elevation": 179,
      "towerheight": 98
    },
    {
      "id": "PHWA",
      "name": "South Shore",
      "state": "HI",
      "latitude": 19.0950,
      "longitude": -155.5689,
      "elevation": 1380,
      "towerheight": 66
    },
    {
      "id": "KOTX",
      "name": "Spokane",
      "state": "WA",
      "latitude": 47.6803,
      "longitude": -117.6267,
      "elevation": 2384,
      "towerheight": 33
    },
    {
      "id": "KSGF",
      "name": "Springfield",
      "state": "MO",
      "latitude": 37.2353,
      "longitude": -93.4006,
      "elevation": 1278,
      "towerheight": 66
    },
    {
      "id": "KCCX",
      "name": "State College",
      "state": "PA",
      "latitude": 40.9231,
      "longitude": -78.0036,
      "elevation": 2405,
      "towerheight": 66
    },
    {
      "id": "KLWX",
      "name": "Sterling",
      "state": "VA",
      "latitude": 38.9753,
      "longitude": -77.4778,
      "elevation": 272,
      "towerheight": 82
    },
    {
      "id": "KTLH",
      "name": "Tallahassee",
      "state": "FL",
      "latitude": 30.3975,
      "longitude": -84.3289,
      "elevation": 63,
      "towerheight": 98
    },
    {
      "id": "KTBW",
      "name": "Tampa",
      "state": "FL",
      "latitude": 27.7056,
      "longitude": -82.4017,
      "elevation": 41,
      "towerheight": 66
    },
    {
      "id": "KTWX",
      "name": "Topeka",
      "state": "KS",
      "latitude": 38.9969,
      "longitude": -96.2325,
      "elevation": 1367,
      "towerheight": 33
    },
    {
      "id": "KEMX",
      "name": "Tucson",
      "state": "AZ",
      "latitude": 31.8936,
      "longitude": -110.6303,
      "elevation": 5205,
      "towerheight": 98
    },
    {
      "id": "KINX",
      "name": "Tulsa",
      "state": "OK",
      "latitude": 36.1750,
      "longitude": -95.5647,
      "elevation": 668,
      "towerheight": 66
    },
    {
      "id": "KVNX",
      "name": "Vance AFB",
      "state": "OK",
      "latitude": 36.7408,
      "longitude": -98.1278,
      "elevation": 1210,
      "towerheight": 33
    },
    {
      "id": "KVBX",
      "name": "Vandenberg AFB",
      "state": "CA",
      "latitude": 34.8381,
      "longitude": -120.3969,
      "elevation": 1223,
      "towerheight": 66
    },
    {
      "id": "KICT",
      "name": "Wichita",
      "state": "KS",
      "latitude": 37.6547,
      "longitude": -97.4428,
      "elevation": 1335,
      "towerheight": 33
    },
    {
      "id": "KLTX",
      "name": "Wilmington",
      "state": "NC",
      "latitude": 33.9894,
      "longitude": -78.4272,
      "elevation": 64,
      "towerheight": 66
    },
    {
      "id": "KYUX",
      "name": "Yuma",
      "state": "AZ",
      "latitude": 32.4953,
      "longitude": -114.6567,
      "elevation": 174,
      "towerheight": 33
    }
  ]
}
